{"id": 25, "name": "Bermuda", "iso3": "BMU", "iso2": "BM", "numeric_code": "060", "phone_code": "+1-441", "capital": "Hamilton", "currency": "BMD", "currency_name": "Bermudian dollar", "currency_symbol": "$", "tld": ".bm", "native": "Bermuda", "region": "Americas", "subregion": "Northern America", "timezones": [{"zoneName": "Atlantic/Bermuda", "gmtOffset": -14400, "gmtOffsetName": "UTC-04:00", "abbreviation": "AST", "tzName": "Atlantic Standard Time"}], "translations": {"kr": "\ubc84\ubba4\ub2e4", "pt-BR": "Bermudas", "pt": "Bermudas", "nl": "Bermuda", "hr": "Bermudi", "fa": "\u0628\u0631\u0645\u0648\u062f\u0627", "de": "Bermuda", "es": "Bermudas", "fr": "Bermudes", "ja": "\u30d0\u30df\u30e5\u30fc\u30c0", "it": "Bermuda", "cn": "\u767e\u6155\u5927", "tr": "Bermuda"}, "latitude": "32.33333333", "longitude": "-64.75000000", "emoji": "\ud83c\udde7\ud83c\uddf2", "emojiU": "U+1F1E7 U+1F1F2", "states": [{"id": 4860, "name": "Devonshire Parish", "state_code": "DEV", "latitude": "32.30380620", "longitude": "-64.76069540", "type": null, "cities": []}, {"id": 4861, "name": "Hamilton Parish", "state_code": "HA", "latitude": "32.34494320", "longitude": "-64.72365000", "type": null, "cities": []}, {"id": 4863, "name": "Paget Parish", "state_code": "PAG", "latitude": "32.28107400", "longitude": "-64.77847870", "type": null, "cities": []}, {"id": 4864, "name": "Pembroke Parish", "state_code": "PEM", "latitude": "32.30076720", "longitude": "-64.79626300", "type": null, "cities": []}, {"id": 4866, "name": "Saint George's Parish", "state_code": "SGE", "latitude": "17.12577590", "longitude": "-62.56198110", "type": null, "cities": []}, {"id": 4867, "name": "Sandys Parish", "state_code": "SAN", "latitude": "32.29995280", "longitude": "-64.86741030", "type": null, "cities": []}, {"id": 4868, "name": "Smith's Parish,", "state_code": "SMI", "latitude": "32.31339660", "longitude": "-64.73105880", "type": null, "cities": []}, {"id": 4869, "name": "Southampton Parish", "state_code": "SOU", "latitude": "32.25400950", "longitude": "-64.82590580", "type": null, "cities": []}, {"id": 4870, "name": "Warwick Parish", "state_code": "WAR", "latitude": "32.26615340", "longitude": "-64.80811980", "type": null, "cities": []}]}